City_ID,City,Lat,Lng,Max Temp,Humidity,Cloudiness,Wind Speed,Country,Date
0,arteche,12.2645,125.4048,303.95,63,100,3.23,PH,1715649997
1,eggesin,53.6833,14.0833,286.27,76,11,4.11,DE,1715649997
2,montagu,-40.7667,144.9667,287.12,54,47,5.98,AU,1715649998
3,berlin,52.5244,13.4105,288.19,51,0,4.12,DE,1715649728
4,blackmans bay,-43.0167,147.3167,285.66,61,100,1.79,AU,1715649998
5,san antonio de pale,-1.4014,5.6325,299.64,88,100,4.13,GQ,1715649999
6,yuzhno-sakhalinsk,46.9581,142.7337,284.94,66,100,4.0,RU,1715649999
7,puerto ayora,-0.7393,-90.3518,296.79,97,99,2.84,EC,1715649999
8,mil'kovo,55.6078,37.7956,277.07,64,59,1.49,RU,1715650000
9,goba,7.0167,39.9833,284.01,87,100,1.9,ET,1715650000
10,nar'yan-mar,67.6713,53.087,271.27,94,100,4.41,RU,1715650000
11,portland,45.5234,-122.6762,295.47,55,20,4.63,US,1715649900
12,berezovo,63.9381,65.0419,267.0,87,78,2.12,RU,1715650001
13,flying fish cove,-10.4217,105.6791,299.97,89,75,4.63,CX,1715650001
14,iqaluit,63.7506,-68.5145,264.0,62,0,5.14,CA,1715649867
15,clemencia,10.5665,-75.325,301.8,88,100,5.5,CO,1715650002
16,puerto natales,-51.7236,-72.4875,272.75,94,37,2.7,CL,1715650002
17,thompson,55.7435,-97.8558,282.24,46,75,1.03,CA,1715650003
18,edinburgh of the seven seas,-37.0676,-12.3116,287.08,61,96,3.98,SH,1715650003
19,aykhal,66.0,111.5,273.43,100,100,4.12,RU,1715649924
20,adamstown,-25.066,-130.1015,294.4,72,1,1.84,PN,1715650004
21,conde,-7.2597,-34.9075,298.85,94,0,2.06,BR,1715649876
22,waitangi,-43.9535,-176.5597,285.27,76,95,3.13,NZ,1715649799
23,palikir - national government center,6.9248,158.1611,303.62,84,100,4.63,FM,1715650005
24,udachny,66.4167,112.4,272.84,71,100,8.37,RU,1715650005
25,bilibino,68.0546,166.4372,272.53,82,100,1.7,RU,1715650005
26,keflavik,64.0049,-22.5624,278.1,87,0,7.72,IS,1715650005
27,newman,37.3138,-121.0208,303.28,29,69,6.71,US,1715649761
28,fiche,9.8,38.7333,288.37,56,100,0.79,ET,1715650006
29,sitka,57.0531,-135.33,281.09,81,100,5.14,US,1715650006
30,revda,56.801,59.9303,272.34,88,11,2.5,RU,1715650007
31,vorgashor,67.5833,63.95,268.04,85,99,3.41,RU,1715650007
32,anadyr,64.75,177.4833,276.43,70,0,7.0,RU,1715649712
33,nagqu,31.5,92.0,276.5,79,85,3.66,CN,1715650008
34,kodiak,57.79,-152.4072,280.88,71,75,4.63,US,1715650008
35,galax,36.6612,-80.924,289.46,89,100,2.57,US,1715650008
36,nahiyat ash shinafiyah,31.5874,44.6602,298.65,22,0,3.06,IQ,1715650009
37,lata,40.1629,-8.3327,286.52,95,100,1.73,PT,1715650009
38,klyuchi,52.2667,79.1667,289.05,40,8,4.92,RU,1715650009
39,egilsstadir,65.2653,-14.3948,277.1,81,75,2.57,IS,1715650010
40,bredasdorp,-34.5322,20.0403,285.79,95,20,1.86,ZA,1715650010
41,oranjemund,-28.55,16.4333,287.32,81,1,1.77,NA,1715650010
42,kencong,-8.2833,113.3667,299.18,79,13,0.32,ID,1715650011
43,qaqortoq,60.7167,-46.0333,276.16,77,100,1.32,GL,1715650011
44,port douglas,-16.4833,145.4667,299.01,79,23,5.73,AU,1715650011
45,bani walid,31.7566,13.9942,296.26,29,0,4.32,LY,1715650012
46,hithadhoo,-0.6,73.0833,302.54,74,100,3.29,MV,1715650012
47,bang saphan,11.2126,99.5117,302.66,65,42,0.88,TH,1715650012
48,ushuaia,-54.8,-68.3,278.96,81,40,17.49,AR,1715649813
49,grytviken,-54.2811,-36.5092,266.39,76,97,4.26,GS,1715650013
50,ghat,24.9647,10.1728,301.54,16,0,4.03,LY,1715650013
51,atafu village,-8.5421,-172.5159,302.36,76,1,6.21,TK,1715649980
52,ust-nera,64.5667,143.2,273.12,58,27,2.31,RU,1715650028
53,punta arenas,-53.15,-70.9167,278.21,75,0,7.2,CL,1715650047
54,ilulissat,69.2167,-51.1,269.02,96,100,2.82,GL,1715650048
55,albany,42.6001,-73.9662,289.77,73,100,0.45,US,1715650048
56,talnakh,69.4865,88.3972,271.04,97,100,1.49,RU,1715650048
57,maglavit,44.0333,23.1,282.9,82,100,2.22,RO,1715650049
58,ja ela,7.0744,79.8919,298.14,94,20,0.51,LK,1715650049
59,whitehorse,60.7161,-135.0538,280.27,49,100,5.14,CA,1715650049
60,tiksi,71.6872,128.8694,265.66,91,100,1.56,RU,1715650050
61,carbonear,47.7332,-53.2148,279.5,93,100,3.46,CA,1715650050
62,ta`u,-14.2336,-169.5144,301.83,78,100,7.58,AS,1715650050
63,port-aux-francais,-49.35,70.2167,274.98,97,100,16.19,TF,1715650051
64,richfield,44.8833,-93.283,293.27,36,20,4.12,US,1715650051
65,sambava,-14.2667,50.1667,296.35,87,72,5.34,MG,1715650051
66,i-n-salah,27.1935,2.4607,302.48,15,0,4.18,DZ,1715650052
67,olonkinbyen,70.9221,-8.7187,273.36,96,100,2.74,SJ,1715650052
68,sungai besar,3.6746,100.9867,300.93,88,100,0.57,MY,1715650052
69,eagle point,42.4726,-122.8028,300.68,33,27,4.47,US,1715650053
70,teknaf,20.8624,92.3058,300.77,75,100,0.81,BD,1715650053
71,pacific grove,36.6177,-121.9166,292.71,81,75,4.12,US,1715650053
72,lihue,21.9789,-159.3672,299.73,78,40,5.66,US,1715650054
73,ribeira grande,38.5167,-28.7,289.14,72,14,4.47,PT,1715650054
74,rantepao,-2.9701,119.8978,298.6,70,17,1.24,ID,1715650054
75,tateyama,34.9833,139.8667,292.09,60,100,7.07,JP,1715650054
76,lucheng,31.2336,117.2806,295.82,55,0,4.07,CN,1715650055
77,komsomol'skiy,43.9783,46.6985,283.03,59,100,2.65,RU,1715650055
78,gremda,34.75,10.7833,296.22,58,100,0.36,TN,1715650055
79,bubaque,11.2833,-15.8333,299.57,79,6,7.03,GW,1715650056
80,kharp,66.8014,65.8081,262.99,90,100,3.24,RU,1715650056
81,cascais,38.6979,-9.4215,288.74,82,9,6.71,PT,1715650056
82,sao joao da barra,-21.6403,-41.0511,297.76,86,5,4.38,BR,1715649927
83,bethel,41.3712,-73.414,288.35,79,75,2.57,US,1715649880
84,al ghayzah,16.2079,52.176,301.89,65,33,4.05,YE,1715650058
85,vila franca do campo,37.7167,-25.4333,289.38,75,20,2.93,PT,1715650058
86,coquimbo,-29.9533,-71.3436,285.0,82,0,1.54,CL,1715649996
87,chopda,21.25,75.3,303.2,47,55,2.13,IN,1715650059
88,zabol,32.25,67.25,289.09,25,4,1.02,AF,1715650059
89,makurazaki,31.2667,130.3167,293.33,69,0,1.5,JP,1715650059
90,adrar,20.5022,-10.0711,301.85,13,7,5.35,MR,1715650061
91,undurkhaan,47.3194,110.6556,282.51,21,0,5.4,MN,1715650062
92,minas de marcona,-15.2119,-75.1103,286.94,85,43,5.42,PE,1715650062
93,skiathos,39.1623,23.4909,287.02,69,100,4.26,GR,1715650063
94,cabedelo,-6.9811,-34.8339,299.52,82,100,3.06,BR,1715650063
95,yellowknife,62.456,-114.3525,282.82,95,100,1.54,CA,1715649888
96,cidreira,-30.1811,-50.2056,288.92,74,88,7.15,BR,1715650064
97,polyarnyy,69.1989,33.4478,275.0,93,100,5.14,RU,1715650064
98,saipan,15.1355,145.701,305.54,62,40,7.2,MP,1715650064
99,dombarovskiy,50.7587,59.5386,277.59,77,100,6.26,RU,1715650065
100,namtsy,62.7161,129.6658,279.47,38,18,5.16,RU,1715650065
101,petropavlovsk-kamchatsky,53.0452,158.6483,279.48,92,75,6.71,RU,1715650065
102,camana,-16.6228,-72.7111,291.47,89,39,3.6,PE,1715650031
103,invercargill,-46.4,168.35,287.05,72,7,2.68,NZ,1715650066
104,albina,5.5,-54.05,296.8,96,100,1.76,SR,1715650066
105,new norfolk,-42.7826,147.0587,286.32,53,100,3.59,AU,1715650066
106,mount pearl,47.5166,-52.7813,281.34,95,100,2.06,CA,1715650067
107,wailua homesteads,22.0669,-159.378,299.39,83,40,5.66,US,1715650067
108,hawaiian paradise park,19.5933,-154.9731,299.75,84,100,4.12,US,1715650067
109,saldanha,-33.0117,17.9442,285.18,56,0,2.04,ZA,1715650068
110,pailon,-17.65,-62.75,289.65,68,100,5.61,BO,1715650068
111,mount darwin,-16.7725,31.5838,285.17,78,0,1.36,ZW,1715650068
112,margaret river,-33.95,115.0667,293.21,34,9,2.18,AU,1715650069
113,kilju,40.9642,129.3278,296.22,40,100,2.6,KP,1715650069
114,issia,6.4922,-6.5856,297.67,93,100,0.69,CI,1715650069
115,bata,1.8639,9.7658,298.66,89,100,1.56,GQ,1715650070
116,rosetta,31.4044,30.4164,292.6,65,0,5.94,EG,1715650070
117,hammerfest,70.6634,23.6821,279.4,93,75,4.63,NO,1715650070
118,utrik,11.2278,169.8474,300.67,81,19,8.68,MH,1715650071
119,mount gambier,-37.8333,140.7667,288.7,52,0,1.02,AU,1715650071
120,weno,7.4515,151.8468,303.12,84,100,3.09,FM,1715650071
121,barah,13.7,30.3667,304.41,14,61,6.89,SD,1715650071
122,stanley,54.868,-1.6985,286.92,85,0,1.03,GB,1715650072
123,chonchi,-42.6128,-73.8092,275.71,87,5,0.75,CL,1715650072
124,tolanaro,-25.0319,46.9987,295.19,88,75,5.14,MG,1715650072
125,pimenta bueno,-11.6725,-61.1936,298.34,85,100,0.86,BR,1715650073
126,fort bragg,35.139,-79.006,296.06,54,100,2.57,US,1715650073
127,longyearbyen,78.2186,15.6401,272.06,74,0,1.54,SJ,1715650073
128,sarkand,45.41,79.9186,290.21,57,22,1.82,KZ,1715650074
129,taroa,8.7058,171.2275,301.14,82,93,8.26,MH,1715650074
130,nova sintra,14.8667,-24.7167,297.4,79,44,8.06,CV,1715650075
131,grenada,37.1882,-3.6067,288.1,60,0,2.57,ES,1715649903
132,jumla,29.2747,82.1838,284.14,76,5,0.91,NP,1715650078
133,vilyuchinsk,52.9306,158.4028,280.3,99,100,3.38,RU,1715650079
134,guiren,33.6697,118.1889,297.25,44,0,4.15,CN,1715650080
135,flin flon,54.7682,-101.865,284.95,38,26,4.07,CA,1715650081
136,kulhudhuffushi,6.6221,73.07,302.27,78,100,3.74,MV,1715650082
137,tutoia,-2.7619,-42.2744,299.25,90,27,4.09,BR,1715650084
138,alice springs,-23.7,133.8833,290.9,59,73,5.14,AU,1715650084
139,sur,22.5667,59.5289,303.46,47,0,3.77,OM,1715650084
140,kuanda,56.3161,116.0806,279.97,48,67,3.24,RU,1715650085
141,saint-philippe,-21.3585,55.7679,294.92,79,100,4.44,RE,1715650088
142,hermanus,-34.4187,19.2345,288.6,73,7,5.34,ZA,1715650091
143,brak,27.5496,14.2714,297.42,20,0,4.69,LY,1715650094
144,georgetown,5.4112,100.3354,304.11,79,20,2.57,MY,1715650016
145,iskateley,67.6803,53.1512,271.31,94,100,4.44,RU,1715650095
146,mili,6.0815,171.735,301.37,78,100,5.15,MH,1715650095
147,pangkalpinang,-2.1333,106.1333,300.85,85,98,0.5,ID,1715649880
148,happy valley-goose bay,53.3168,-60.3315,279.32,81,20,6.17,CA,1715649892
149,daxing,39.7214,116.3292,301.13,16,1,6.48,CN,1715650105
150,constantia,44.1833,28.65,278.54,71,20,4.32,RO,1715650105
151,queenstown,-31.8976,26.8753,282.43,88,35,1.1,ZA,1715650107
152,harper,4.375,-7.7169,300.18,86,79,3.15,LR,1715650107
153,trincomalee,8.5711,81.2335,301.07,80,98,2.72,LK,1715650111
154,catriel,-37.8791,-67.7956,281.92,51,100,1.31,AR,1715650111
155,lubuklinggau,-3.3,102.8667,297.94,95,99,0.1,ID,1715650111
156,maghar,32.8898,35.407,291.14,91,100,1.52,IL,1715649950
157,vanimo,-2.6741,141.3028,298.74,96,100,1.02,PG,1715650112
158,cabo san lucas,22.8909,-109.9124,302.32,42,0,4.12,MX,1715650038
159,missoula,47.0166,-113.8009,290.73,34,0,5.54,US,1715650114
160,port elizabeth,-33.918,25.5701,290.31,96,0,3.09,ZA,1715650115
161,haiku-pauwela,20.9219,-156.3051,301.05,76,40,6.69,US,1715650116
162,namibe,-15.1961,12.1522,294.84,85,1,1.73,AO,1715650116
163,syzran',53.1585,48.4681,275.99,75,22,1.82,RU,1715650117
164,charters towers,-20.1,146.2667,300.05,44,0,6.49,AU,1715650117
165,remire-montjoly,4.9167,-52.2667,298.17,100,75,1.03,GF,1715650117
166,la'ie,21.6477,-157.9253,300.13,81,32,1.79,US,1715650119
167,yola,9.2,12.4833,299.89,73,76,2.19,NG,1715650119
168,college,64.8569,-147.8028,287.12,57,75,5.14,US,1715650119
169,enewetak,11.3474,162.3373,300.85,77,100,8.53,MH,1715650120
170,bardai,11.65,7.2333,300.34,58,77,4.53,NG,1715650121
171,west island,-12.1568,96.8225,301.14,78,40,5.66,CC,1715650122
172,waingapu,-9.6567,120.2641,301.04,73,99,5.81,ID,1715650122
173,holualoa,19.6228,-155.9522,299.06,80,75,4.63,US,1715650071
174,carnarvon,-24.8667,113.6333,295.73,60,1,1.51,AU,1715650123
175,ketchikan,55.3422,-131.6461,281.41,81,100,6.69,US,1715650124
176,arkhangel'sk,64.5401,40.5433,273.22,80,40,2.0,RU,1715650124
177,bridgewater,44.3835,-64.5155,279.97,82,6,2.06,CA,1715650031
178,east london,-33.0153,27.9116,291.79,83,16,6.15,ZA,1715650125
179,clarkston heights-vineland,46.3874,-117.083,295.8,58,6,5.36,US,1715650125
180,kailua-kona,19.6406,-155.9956,301.13,80,75,4.63,US,1715650126
181,caldas novas,-17.7417,-48.625,292.92,47,6,0.37,BR,1715650126
182,ingeniero jacobacci,-41.3427,-69.5448,274.14,70,45,2.7,AR,1715650126
183,los frentones,-26.4077,-61.4137,285.4,76,100,2.51,AR,1715650127
184,kingston,17.997,-76.7936,302.68,70,20,8.23,JM,1715649896
185,mhamid,29.82,-5.72,301.97,14,36,4.58,MA,1715650127
186,praia da vitoria,38.7333,-27.0667,289.29,67,75,4.7,PT,1715650128
187,turkmenabat,39.0733,63.5786,294.14,46,0,4.12,TM,1715650128
188,odda,60.0691,6.5457,287.47,58,31,3.22,NO,1715650128
189,mana,5.6592,-53.7767,298.01,91,100,4.58,GF,1715650129
190,vadso,70.0744,29.7487,276.64,87,20,0.51,NO,1715650129
191,jianshui,23.6363,102.8264,294.31,80,100,1.47,CN,1715650129
192,jamestown,42.097,-79.2353,289.66,91,88,2.64,US,1715650004
193,sao felix do xingu,-6.6447,-51.995,297.76,82,100,1.21,BR,1715650130
194,aasiaat,68.7098,-52.8699,267.61,72,6,9.61,GL,1715650130
195,ubinskoye,55.3068,79.6802,288.89,40,62,7.07,RU,1715650130
196,kill devil hills,36.0307,-75.676,290.36,77,0,2.57,US,1715650131
197,sydney mines,46.2367,-60.2177,279.29,88,20,4.12,CA,1715650131
198,praia,14.9215,-23.5087,296.45,78,20,6.17,CV,1715650131
199,guiglo,6.5456,-7.4966,296.88,99,100,0.79,CI,1715650132
200,afaahiti,-17.75,-149.2833,303.08,71,84,7.72,PF,1715650132
201,tsiombe,-25.3,45.4833,294.39,91,23,5.01,MG,1715650132
202,nuuk,64.1835,-51.7216,271.97,100,15,4.92,GL,1715650133
203,cururupu,-1.8283,-44.8683,296.71,99,95,0.6,BR,1715650133
204,deqen,29.9618,90.7188,280.34,67,100,2.6,CN,1715650133
205,santa maria,-29.6842,-53.8069,285.76,82,75,2.06,BR,1715650134
206,funafuti,-8.5243,179.1942,303.15,84,75,6.17,TV,1715650134
207,smithers,54.7804,-127.1743,286.33,41,40,5.14,CA,1715650135
208,timbuktu,16.7735,-3.0074,305.56,37,99,2.63,ML,1715650135
209,kaohsiung,22.6163,120.3133,299.12,77,75,3.09,TW,1715650019
210,port lincoln,-34.7333,135.8667,288.58,79,100,4.14,AU,1715650136
211,gadzhiyevo,69.2551,33.3362,275.14,95,100,4.88,RU,1715650138
212,rongelap,11.1635,166.8941,300.69,81,43,8.75,MH,1715650140
213,inhambane,-23.865,35.3833,296.1,75,100,5.72,MZ,1715650141
214,fale old settlement,-9.3852,-171.2468,302.65,75,13,6.77,TK,1715650141
215,papatowai,-46.5619,169.4708,286.2,57,15,1.71,NZ,1715650141
216,vilhena,-12.7406,-60.1458,297.42,68,100,1.36,BR,1715650143
217,acarau,-2.8856,-40.12,299.19,88,85,3.54,BR,1715650143
218,kalix,65.853,23.1565,275.87,99,100,1.72,SE,1715650143
219,cockburn town,21.4612,-71.1419,299.59,85,100,8.81,TC,1715650146
220,onguday,50.75,86.15,285.28,76,100,1.62,RU,1715650147
221,port blair,11.6667,92.75,302.14,77,100,2.27,IN,1715650147
222,san sebastian de la gomera,28.0916,-17.1133,294.47,77,20,2.57,ES,1715650148
223,serra talhada,-7.9919,-38.2983,296.8,83,14,3.61,BR,1715650150
224,koumra,8.9126,17.5539,301.84,45,100,2.11,TD,1715650152
225,bontang,0.1333,117.5,301.16,79,96,1.48,ID,1715650153
226,dunda,-8.1167,34.25,289.25,89,94,1.22,TZ,1715650153
227,pierre,44.3683,-100.351,295.29,36,0,3.6,US,1715650156
228,sarangani,5.4033,125.4636,301.82,79,100,7.63,PH,1715650158
229,burela de cabo,43.65,-7.4,286.02,90,100,5.53,ES,1715650140
230,guerrero negro,27.9769,-114.0611,290.7,75,98,8.28,MX,1715650159
231,malax,62.9423,21.5731,281.41,96,0,2.06,FI,1715650160
232,tura,25.5198,90.2201,301.51,56,6,1.78,IN,1715650160
233,san patricio,28.017,-97.5169,300.09,86,3,9.02,US,1715650160
234,rudnichnyy,59.617,52.4703,268.79,93,12,1.74,RU,1715650161
235,pisco,-13.7,-76.2167,293.18,73,0,4.63,PE,1715650091
236,nyurba,63.2842,118.3319,276.89,75,77,3.76,RU,1715650161
237,zeerust,-25.5369,26.0751,286.75,73,2,0.64,ZA,1715650162
238,kuta,-8.7233,115.1723,301.12,88,20,5.36,ID,1715650162
239,port mathurin,-19.6833,63.4167,298.39,62,35,5.59,MU,1715650166
240,zmiyevka,52.6697,36.3739,274.85,84,34,2.27,RU,1715650169
241,likasi,-10.9814,26.7333,288.47,84,0,1.8,CD,1715650170
242,tamanrasset,22.785,5.5228,294.1,10,0,2.57,DZ,1715650170
243,ancud,-41.8697,-73.8203,277.93,79,0,2.91,CL,1715650172
244,nizhneangarsk,55.7833,109.55,274.26,62,99,1.79,RU,1715650172
245,lebu,-37.6167,-73.65,281.37,84,33,2.71,CL,1715650172
246,christchurch,-43.5333,172.6333,288.94,66,9,4.63,NZ,1715650017
247,kuala terengganu,5.3302,103.1408,303.12,84,20,1.54,MY,1715650173
248,lagunas,-5.2269,-75.6753,297.67,97,100,1.03,PE,1715650173
249,madang,-5.2246,145.7966,303.21,73,88,2.12,PG,1715650174
250,moyynkum,44.2914,72.9469,291.84,59,21,3.3,KZ,1715650176
251,ericeira,38.9627,-9.4156,288.65,84,8,8.86,PT,1715650176
252,tazovsky,67.4667,78.7,267.87,92,100,7.66,RU,1715650177
253,mildura,-34.2,142.15,290.41,59,34,3.81,AU,1715650177
254,an nuhud,12.7,28.4333,303.76,15,91,8.61,SD,1715650178
255,akjoujt,19.6969,-14.4164,303.27,11,8,4.45,MR,1715650178
256,istgah-e rah ahan-e garmsar,35.2346,52.3094,294.56,49,2,2.45,IR,1715650178
257,vernon,50.2581,-119.2691,293.49,65,100,4.47,CA,1715650178
258,puerto carreno,6.189,-67.4859,302.42,69,100,1.52,CO,1715650179
259,harstad,68.799,16.5293,285.16,79,100,5.81,NO,1715650179
260,cannonvale,-20.2833,148.7,296.81,75,21,8.96,AU,1715650179
261,hobyo,5.3505,48.5268,301.56,80,96,7.69,SO,1715650180
262,oyama,36.3,139.8,292.36,40,100,2.37,JP,1715650180
263,vorkuta,67.5,64.0,268.21,85,99,5.36,RU,1715650180
264,nemuro,43.3236,145.575,282.8,80,12,4.79,JP,1715650184
265,anna regina,7.2644,-58.5077,299.8,82,9,3.73,GY,1715650184
266,bhinmal,25.0,72.25,301.42,53,100,1.84,IN,1715650184
267,parabel',58.6978,81.4825,289.21,44,100,7.15,RU,1715650185
268,las khorey,11.1595,48.1967,303.35,74,16,2.52,SO,1715650185
269,qamdo,31.1667,97.2333,280.87,47,100,1.24,CN,1715650186
270,coahuayana de hidalgo,18.7,-103.6583,299.2,63,11,1.98,MX,1715650186
271,heroica guaymas,27.9333,-110.9,300.8,37,75,6.69,MX,1715649923
272,kayunga,0.7025,32.8886,291.99,95,99,1.26,UG,1715650187
273,lazaro cardenas,17.9583,-102.2,299.61,70,100,4.06,MX,1715649984
274,sept-iles,50.2001,-66.3821,281.51,80,40,2.57,CA,1715650188
275,villa gesell,-37.2639,-56.973,278.74,80,13,7.06,AR,1715650172
276,pauini,-7.7136,-66.9764,296.99,98,100,1.14,BR,1715650188
277,viedma,-40.8135,-62.9967,280.26,59,96,2.71,AR,1715650191
278,koungou,-12.7336,45.2042,300.99,78,75,8.75,YT,1715650191
279,uturoa,-16.7333,-151.4333,301.03,74,14,8.47,PF,1715650191
280,tyukhtet,56.5389,89.3011,288.82,49,1,2.08,RU,1715650192
281,maun,-19.9833,23.4167,290.1,56,0,3.73,BW,1715650192
282,crane,31.3974,-102.3501,301.36,20,0,3.31,US,1715650192
283,prince george,53.9166,-122.753,288.29,39,100,4.12,CA,1715650193
284,diego de almagro,-26.3667,-70.05,287.02,43,100,0.87,CL,1715650193
285,jalai nur,49.45,117.7,282.83,21,0,9.54,CN,1715650193
286,gamba,-2.65,10.0,298.83,92,100,1.36,GA,1715650193
287,new plymouth,-39.0667,174.0833,284.44,85,100,3.79,NZ,1715650194
288,turpan,42.9333,89.1667,304.7,22,100,2.12,CN,1715650194
289,ugoofaaru,5.6667,73.0,302.2,77,100,5.22,MV,1715650194
290,george town,5.4112,100.3354,304.11,79,20,2.57,MY,1715650016
291,gering,41.8258,-103.6605,298.81,26,0,0.0,US,1715650195
292,puerto baquerizo moreno,-0.9,-89.6,296.48,87,100,3.42,EC,1715650195
293,shingu,33.7333,135.9833,292.74,60,100,3.69,JP,1715650196
294,mount isa,-20.7333,139.5,299.02,36,0,5.14,AU,1715650196
295,badger,64.8,-147.5333,287.08,53,75,5.14,US,1715650197
296,berber,18.0216,33.983,302.66,17,0,8.76,SD,1715650197
297,karagay,58.2667,54.9368,271.67,84,12,2.47,RU,1715650201
298,mogocha,53.7333,119.7667,282.39,24,7,5.63,RU,1715650203
299,buka,40.8108,69.1986,296.02,38,54,1.08,UZ,1715650205
300,meadow lake,34.8014,-106.5436,298.97,22,1,2.56,US,1715650206
301,jinchang,38.4953,102.1739,296.15,27,0,3.69,CN,1715650208
302,guatire,10.4762,-66.5427,296.26,97,100,0.77,VE,1715650209
303,masterton,-40.9597,175.6575,287.53,53,100,1.97,NZ,1715650209
304,kenai,60.5544,-151.2583,283.18,53,20,4.12,US,1715650210
305,zhumadian,32.9794,114.0294,301.33,28,0,4.37,CN,1715650210
306,kruisfontein,-34.0033,24.7314,285.86,91,48,1.91,ZA,1715650210
307,kyakhta,50.3508,106.4494,286.88,26,0,4.43,RU,1715650211
308,federacion,-31.0062,-57.8996,281.81,73,51,5.38,AR,1715650112
309,am timan,11.0297,20.2827,303.41,39,38,2.32,TD,1715650211
310,okha,53.5739,142.9478,277.73,73,84,3.58,RU,1715650212
311,arar,30.9753,41.0381,292.16,34,0,5.14,SA,1715650212
312,kasongo-lunda,-6.4667,16.8167,295.64,89,94,0.35,CD,1715650212
313,puerto aysen,-45.4,-72.7,272.05,96,77,0.37,CL,1715650207
314,griffith,41.5284,-87.4237,290.96,93,100,3.6,US,1715650214
315,houghton,47.1219,-88.569,282.86,61,0,4.63,US,1715650214
316,saint-junien,45.8833,0.9,286.47,99,100,1.74,FR,1715650215
317,susuman,62.7833,148.1667,273.14,84,100,3.58,RU,1715650215
318,roxas,11.5853,122.7511,304.9,66,91,3.58,PH,1715650216
319,thabazimbi,-24.5917,27.4116,287.32,81,0,0.29,ZA,1715650216
320,malinyi,-8.9333,36.1333,293.06,94,72,0.97,TZ,1715650216
321,micheweni,-4.9667,39.8333,299.85,82,18,6.22,TZ,1715650216
322,jolo,6.05,121.0167,304.87,63,70,0.91,PH,1715650217
323,brookings,44.3114,-96.7984,291.34,41,0,2.57,US,1715650217
324,berdigestyakh,62.0989,126.6992,278.41,49,97,4.31,RU,1715650220
325,domna,51.8971,113.1573,284.24,16,0,8.0,RU,1715650221
326,labrador city,52.9463,-66.9114,284.36,37,100,16.54,CA,1715650213
327,soio,-6.1349,12.3689,299.07,92,79,3.02,AO,1715650221
328,zahedan,29.4963,60.8629,296.1,28,0,4.12,IR,1715650223
329,anloga,5.7947,0.8973,300.74,80,100,3.65,GH,1715650223
330,santo antonio do ica,-3.1022,-67.9397,296.56,97,96,1.19,BR,1715650224
331,albufeira,37.0882,-8.2503,290.06,73,6,6.89,PT,1715650224
332,annau,37.8876,58.516,293.87,68,100,5.14,TM,1715650224
333,gaiman,-43.2897,-65.4929,278.63,65,100,4.11,AR,1715650228
334,naze,28.3667,129.4833,297.66,68,100,2.37,JP,1715650228
335,narrabri,-30.3167,149.7833,293.44,73,22,1.34,AU,1715650229
336,gasa,31.5,34.4667,292.67,60,34,3.67,PS,1715650231
337,port isabel,26.0734,-97.2086,303.19,86,100,7.6,US,1715650233
338,bikenibeu village,1.3673,173.1241,305.13,70,40,6.17,KI,1715650233
339,bathsheba,13.2167,-59.5167,301.49,83,40,4.63,BB,1715650233
340,finspang,58.7058,15.7674,284.44,73,99,1.63,SE,1715650047
341,kampong chhnang,12.1667,104.55,301.36,75,100,2.06,KH,1715650235
342,la ronge,55.1001,-105.2842,286.29,44,75,6.17,CA,1715650236
343,kollo,13.3043,2.339,303.39,48,99,3.38,NE,1715650236
344,orivesi,61.6777,24.3572,281.32,91,64,1.79,FI,1715650236
345,fort st. john,56.2499,-120.8529,290.09,25,75,8.75,CA,1715649970
346,chipinge,-20.1883,32.6236,286.6,95,48,1.64,ZW,1715650237
347,wajir,1.7471,40.0573,298.43,78,89,5.73,KE,1715650238
348,avarua,-21.2078,-159.775,297.18,88,100,4.12,CK,1715650239
349,karratha,-20.7377,116.8463,300.33,55,0,1.84,AU,1715650240
350,weyburn,49.6668,-103.8511,291.27,39,100,9.77,CA,1715650240
351,potosi,-19.5836,-65.7531,283.98,51,6,1.42,BO,1715650240
352,st. john's,47.5649,-52.7093,281.81,95,100,2.06,CA,1715650126
353,avrig,45.7167,24.3833,279.6,80,100,1.06,RO,1715650241
354,labytnangi,66.6572,66.4183,263.36,90,100,2.18,RU,1715650241
355,tralee,52.2704,-9.7026,281.64,96,95,1.67,IE,1715650242
356,boa vista,2.8197,-60.6733,302.14,70,20,2.06,BR,1715650157
357,laguna,38.421,-121.4238,305.16,33,0,4.63,US,1715650163
358,kapa'a,22.0752,-159.319,300.14,83,40,5.66,US,1715650243
359,zaozersk,69.4005,32.4476,276.35,93,100,6.44,RU,1715650243
360,prince rupert,54.3161,-130.3201,282.98,76,100,3.6,CA,1715650243
361,sinop,41.7711,34.8709,276.05,94,9,3.17,TR,1715650244
362,yemetsk,63.4721,41.7941,271.89,90,99,0.17,RU,1715650244
363,kargil,34.5667,76.1,274.56,41,88,0.42,IN,1715650244
364,maceio,-9.6658,-35.7353,299.84,89,75,1.03,BR,1715650069
365,rikaze,29.25,88.8833,284.83,36,56,2.11,CN,1715650245
366,santa ana,33.7456,-117.8678,299.06,71,40,4.63,US,1715649999
367,taulaga,-11.0553,-171.0883,302.54,75,69,7.13,AS,1715650246
368,bel ombre,-4.6167,55.4167,302.06,84,40,6.69,SC,1715650246
369,yangambi,0.8102,24.4336,295.58,99,100,1.34,CD,1715650246
370,salinas,36.6777,-121.6555,293.49,78,0,4.63,US,1715650122
371,meiganga,6.5167,14.3,293.07,83,100,1.05,CM,1715650247
372,morant bay,17.8815,-76.4093,302.94,89,53,3.97,JM,1715650247
373,kavaratti,10.5669,72.642,303.56,69,0,3.61,IN,1715650248
374,ola,59.5833,151.2833,277.12,93,100,2.8,RU,1715650248
375,manakara,-22.1333,48.0167,293.27,92,4,1.81,MG,1715650249
376,malango,-2.9627,119.9001,300.27,62,22,1.73,ID,1715650249
377,fada,9.5667,8.3,295.11,92,100,1.5,NG,1715650249
378,hamilton,39.1834,-84.5333,295.39,58,20,3.6,US,1715650211
379,kapuskasing,49.4169,-82.4331,279.2,70,100,7.72,CA,1715650202
380,mhango,-3.2833,32.85,290.59,82,100,1.59,TZ,1715650250
381,starodub,52.5844,32.7633,274.01,82,66,2.34,RU,1715650250
382,umba,66.6871,34.3429,273.7,99,100,2.87,RU,1715650251
383,belinskiy,52.9647,43.4165,275.47,80,18,1.45,RU,1715650251
384,kongolo,-5.3833,27.0,294.58,90,100,1.32,CD,1715650252
385,humaita,-7.5061,-63.0208,297.4,97,100,1.15,BR,1715650253
386,merced,37.1666,-120.7516,303.28,21,48,4.3,US,1715650075
387,faya-largeau,17.9257,19.1043,304.05,16,74,10.87,TD,1715650253
388,lerwick,60.1545,-1.1494,283.15,96,100,7.55,GB,1715650256
389,okhotsk,59.3833,143.3,280.41,60,7,6.27,RU,1715650256
390,tieli,46.95,128.05,287.21,53,39,6.61,CN,1715650256
391,sault ste. marie,46.5168,-84.3333,280.46,70,0,3.6,CA,1715650231
392,zhangye,38.9342,100.4517,298.29,14,4,1.99,CN,1715650259
393,kirsanov,52.6549,42.7224,275.83,82,27,1.62,RU,1715650260
394,forster,-32.1667,152.5167,295.58,66,0,2.39,AU,1715650261
395,dakhla,23.6848,-15.958,291.0,91,11,10.39,EH,1715650262
396,betare oya,5.6,14.0833,293.92,95,100,0.65,CM,1715650266
397,pyt-yakh,60.7499,72.8582,274.07,60,100,4.23,RU,1715650266
398,urucara,-2.5364,-57.76,297.45,93,100,1.01,BR,1715650268
399,idil,37.3411,41.8895,286.11,77,75,3.09,TR,1715650268
400,isafjordur,66.0755,-23.124,273.4,76,14,1.21,IS,1715650268
401,hirara,24.8,125.2833,296.3,88,75,5.14,JP,1715650270
402,pokhara,28.2333,83.9833,296.89,57,9,0.66,NP,1715650203
403,el calafate,-50.3408,-72.2768,273.09,58,25,3.32,AR,1715650270
404,chui,-33.6971,-53.4616,280.69,80,64,3.83,UY,1715650271
405,porto novo,6.4965,2.6036,299.05,84,100,1.83,BJ,1715650271
406,callao,-12.0667,-77.15,295.77,77,0,3.09,PE,1715650271
407,ourem,39.6417,-8.5919,286.64,87,6,2.63,PT,1715650273
408,matoury,4.8483,-52.3317,298.13,100,75,1.03,GF,1715650273
409,changji,44.0167,87.3167,296.59,46,0,2.0,CN,1715650273
410,santa catalina,9.3337,122.8637,304.14,58,100,1.84,PH,1715650274
411,kashary,49.04,41.0056,277.45,66,100,3.41,RU,1715650274
412,nahiyat al fuhud,30.9697,46.7228,299.24,45,100,3.55,IQ,1715650274
413,sant lluis,39.8526,4.2594,291.37,94,100,3.6,ES,1715650275
414,port alfred,-33.5906,26.891,291.58,94,90,2.24,ZA,1715650275
415,miles city,46.4083,-105.8406,299.69,36,61,2.06,US,1715650276
416,kaseda-shirakame,31.4167,130.3167,293.83,69,0,1.71,JP,1715650276
417,trairi,-3.2778,-39.2689,298.44,89,55,2.34,BR,1715650276
418,kristiansund,63.1115,7.732,284.51,82,61,3.09,NO,1715650277
419,emerald,-23.5333,148.1667,297.78,37,12,6.17,AU,1715650277
420,iguape,-24.7081,-47.5553,295.01,89,100,3.81,BR,1715650278
421,schiffdorf,53.5333,8.65,288.85,72,6,5.65,DE,1715650279
422,linxia chengguanzhen,35.6003,103.2064,293.15,39,63,1.24,CN,1715650279
423,trinity beach,-16.7888,145.6968,303.16,83,100,6.17,AU,1715650281
424,katsuura,35.1333,140.3,290.01,67,100,9.6,JP,1715650281
425,touros,-5.1989,-35.4608,299.07,84,96,3.53,BR,1715650282
426,belmonte,-15.8631,-38.8828,298.03,82,0,2.12,BR,1715650282
427,belgrade,44.804,20.4651,285.96,70,0,2.06,RS,1715650014
428,tazacorte,28.629,-17.9293,292.69,94,40,7.72,ES,1715650283
429,kone,-21.0595,164.8658,303.63,44,2,1.66,NC,1715650283
430,ulsteinvik,62.3432,5.8487,287.08,57,85,1.79,NO,1715650255
431,bayganin,48.6947,55.8742,279.95,73,32,5.33,KZ,1715650284
432,tulun,54.5611,100.5792,289.46,39,44,4.81,RU,1715650284
433,kishangarh,26.5667,74.8667,304.76,29,100,4.78,IN,1715650285
434,sathupalli,17.2497,80.869,301.55,79,58,4.01,IN,1715650286
435,rio san juan,19.6439,-70.0763,298.68,90,28,3.89,DO,1715650286
436,carloforte,39.145,8.3058,290.01,74,100,2.44,IT,1715650289
437,ambalavao,-21.8333,46.9333,288.35,94,27,1.73,MG,1715650289
438,al wafrah,28.6392,47.9306,300.12,47,89,4.68,KW,1715650289
439,boende,-0.2167,20.8667,295.62,97,100,1.02,CD,1715650290
440,kingscliff,-28.2667,153.5667,298.02,64,60,5.66,AU,1715650290
441,ixtapa,20.7,-105.2,298.83,78,0,4.12,MX,1715650290
442,pagar alam,-4.0167,103.2667,297.07,94,100,0.62,ID,1715650293
443,luderitz,-26.6481,15.1594,288.6,72,0,2.52,NA,1715650293
444,mayahi,13.9553,7.6712,304.6,26,97,2.33,NE,1715650293
445,hadibu,12.65,54.0333,301.08,70,98,2.03,YE,1715650294
446,pandan,14.0453,124.1694,304.2,65,66,1.83,PH,1715650294
447,severo-yeniseyskiy,60.3725,93.0408,282.36,56,100,4.02,RU,1715650294
448,sisimiut,66.9395,-53.6735,268.26,86,98,5.59,GL,1715650295
449,hinton,53.4001,-117.5857,282.24,83,100,2.12,CA,1715650295
450,cookeville,36.1628,-85.5016,290.36,87,100,2.57,US,1715650165
451,twon-brass,4.3151,6.2418,300.2,83,100,1.06,NG,1715650296
452,ciudad bolivar,8.1222,-63.5497,304.45,44,99,7.49,VE,1715650296
453,klaksvik,62.2266,-6.589,282.66,98,100,5.72,FO,1715650297
454,naracoorte,-36.9579,140.7383,289.15,50,2,0.71,AU,1715650297
455,mahina,-17.5065,-149.489,304.02,62,20,2.06,PF,1715650298
456,bayanhongor,46.7167,100.1167,281.28,52,56,1.54,MN,1715650089
457,aki,33.5,133.9,294.12,52,1,3.17,JP,1715650299
458,sao jose da coroa grande,-8.8978,-35.1478,299.38,83,15,1.5,BR,1715650300
459,ankola,14.6667,74.3,301.75,79,6,1.02,IN,1715650300
460,manta,-0.95,-80.7333,299.03,78,20,4.12,EC,1715650108
461,yerofey pavlovich,53.9667,121.9667,280.48,43,58,7.44,RU,1715650301
462,bastrop,32.7562,-91.8724,296.97,93,75,4.63,US,1715650301
463,attock city,33.7731,72.3741,298.38,35,0,1.72,PK,1715650301
464,pyapon,16.2833,95.6833,305.26,56,100,2.89,MM,1715650302
465,crozon,48.2464,-4.4899,285.36,87,75,7.72,FR,1715650302
466,san marcos,33.1434,-117.1661,295.67,74,20,3.6,US,1715650023
467,manay,7.215,126.5397,303.65,61,25,3.58,PH,1715650303
468,tromso,69.6496,18.957,282.16,76,100,5.66,NO,1715650303
469,uruzgan,32.8333,66.0,292.95,27,94,2.08,AF,1715650303
470,tanah merah,5.8,102.15,303.05,75,32,0.79,MY,1715650304
471,fuerte olimpo,-21.0415,-57.8738,287.29,91,100,3.52,PY,1715650306
472,beyneu,45.3167,55.2,286.96,65,100,4.4,KZ,1715650306
473,villa de soto,-30.8552,-64.9995,280.59,56,89,2.73,AR,1715650307
474,terenozek,45.05,64.9833,297.09,37,99,3.17,KZ,1715650307
475,qashyr,53.0675,76.1036,292.39,40,95,7.16,KZ,1715650308
476,ewo,-0.8725,14.8206,297.92,83,99,1.13,CG,1715650311
477,bastad,56.4269,12.8534,284.74,65,20,3.09,SE,1715650312
478,waddan,29.1614,16.139,295.03,26,0,6.43,LY,1715650312
479,santa elena de uairen,4.6167,-61.1333,293.95,77,9,0.53,VE,1715650313
480,caazapa,-26.15,-56.4,285.44,94,100,3.65,PY,1715650314
481,pizhou,34.3114,117.9503,299.66,36,0,4.9,CN,1715650314
482,axim,4.8699,-2.2405,299.04,89,100,1.72,GH,1715650315
483,daegu,35.8,128.55,294.51,46,0,1.54,KR,1715650206
484,verkhnevilyuysk,63.4453,120.3167,278.58,57,50,2.58,RU,1715650315
485,dryden,49.7833,-92.7503,283.31,57,0,3.6,CA,1715650316
486,santa helena de goias,-17.8136,-50.5969,294.21,57,1,2.06,BR,1715650316
487,sao joaquim,-28.2939,-49.9317,280.3,98,100,2.09,BR,1715650317
488,rawson,-43.3002,-65.1023,279.52,63,100,5.09,AR,1715650317
489,la passe,45.5549,-0.8967,286.47,82,100,6.55,FR,1715650317
490,puerto armuelles,8.2833,-82.8667,300.14,77,100,1.79,PA,1715650318
491,lobito,-12.3481,13.5456,298.28,84,95,2.0,AO,1715650318
492,masaka,-0.3338,31.7341,289.98,92,100,2.39,UG,1715650318
493,montepuez,-13.1256,38.9997,291.44,89,18,3.28,MZ,1715650321
494,tindouf,27.6711,-8.1474,297.4,38,0,5.14,DZ,1715650321
495,horta,38.5333,-28.6333,288.72,72,9,4.47,PT,1715650321
496,aras-asan,8.8908,126.3033,302.5,69,74,1.88,PH,1715650322
497,jilin,43.0,126.0,292.46,43,100,4.87,CN,1715650322
498,khandyga,62.6667,135.6,281.66,32,18,2.33,RU,1715650323
499,mar del plata,-38.0023,-57.5575,282.09,64,100,4.02,AR,1715650204
500,mollendo,-17.0231,-72.0147,290.38,84,62,3.55,PE,1715650323
501,alofi,-19.0595,-169.9187,299.09,89,100,8.23,NU,1715650325
502,miguel esteban,39.5193,-3.1035,287.21,88,11,4.56,ES,1715650325
503,tofol,5.3248,163.0078,302.03,84,75,3.6,FM,1715650327
504,al kharijah,25.4514,30.5464,293.51,29,0,4.51,EG,1715650327
505,kamen'-rybolov,44.7481,132.0403,290.53,53,100,5.97,RU,1715650327
506,prince albert,53.2001,-105.7677,288.12,44,100,6.17,CA,1715650328
507,juli,-16.2167,-69.45,281.06,86,100,1.51,PE,1715650328
508,paracuru,-3.41,-39.0306,302.1,88,32,2.97,BR,1715650328
509,fortuna,40.5982,-124.1573,287.0,87,100,4.12,US,1715650329
510,hilton head island,32.2163,-80.7526,295.92,72,100,3.6,US,1715650148
511,sal rei,16.1833,-22.9167,295.42,80,95,8.07,CV,1715650330
512,stonehaven,56.9637,-2.2118,285.44,96,100,1.72,GB,1715650330
513,sardarshahr,28.4333,74.4833,305.33,13,36,3.07,IN,1715650330
514,burang,30.25,81.1667,274.22,67,65,1.01,CN,1715650331
515,rio grande,-32.035,-52.0986,285.21,71,2,7.1,BR,1715650175
516,belmar,40.1785,-74.0218,289.45,80,0,2.57,US,1715650113
517,bosa,40.2993,8.4983,287.2,66,100,2.31,IT,1715650333
518,sao paulo de olivenca,-3.3783,-68.8725,296.73,98,100,1.16,BR,1715650333
519,marivan,35.5219,46.176,283.73,73,18,1.66,IR,1715650333
520,kargat,55.1956,80.2811,290.97,39,28,7.14,RU,1715650334
521,sandnessjoen,66.0217,12.6316,281.44,82,89,4.87,NO,1715650249
522,kerema,-7.9631,145.7785,301.24,79,100,2.37,PG,1715650334
523,nykvarn,59.8,18.3,283.14,78,92,1.96,SE,1715650335
524,glace bay,46.1969,-59.957,279.14,88,20,4.12,CA,1715650336
525,egersund,58.4513,5.9997,289.87,61,66,8.35,NO,1715650336
526,brigg,53.552,-0.4921,288.14,91,100,5.14,GB,1715650337
527,saudarkrokur,65.7461,-19.6394,273.56,93,86,2.38,IS,1715650337
528,igarka,67.4667,86.5833,273.16,83,100,6.26,RU,1715650338
529,pangkalanbuun,-2.6833,111.6167,297.85,98,100,0.86,ID,1715650338
530,kokopo,-4.352,152.2633,302.8,68,97,5.24,PG,1715650338
531,ayr,55.4627,-4.6339,288.11,94,20,3.6,GB,1715650340
532,tucker,33.8545,-84.2171,291.07,75,100,1.54,US,1715650340
533,narvik,68.4384,17.4272,283.36,96,99,3.43,NO,1715650340
534,al hawatah,13.4167,34.6333,308.22,20,100,1.93,SD,1715650342
535,agadez,19.75,10.25,304.25,15,100,2.64,NE,1715650342
536,sorong,-0.8833,131.25,301.57,76,100,1.34,ID,1715650342
537,sechura,-5.5569,-80.8222,294.27,75,90,7.01,PE,1715650343
538,ambovombe,-25.1667,46.0833,293.74,90,5,4.38,MG,1715650343
539,tayaman,13.2295,120.5726,304.35,59,100,3.32,PH,1715650344
540,salavat,53.3837,55.9077,275.53,76,34,3.03,RU,1715650344
541,magadan,59.5667,150.8,276.78,95,100,2.56,RU,1715650344
542,kangding,30.0513,101.9603,289.58,77,35,0.68,CN,1715650345
543,masuguru,-11.3667,38.4167,293.75,95,24,1.48,TZ,1715650345
544,an muileann gcearr,53.5333,-7.35,281.86,95,59,1.46,IE,1715650345
545,lawton,34.6087,-98.3903,296.28,60,0,2.57,US,1715650346
546,kuqa,41.7278,82.9364,301.19,17,100,5.45,CN,1715650346
547,rabo de peixe,37.8,-25.5833,288.88,63,75,2.06,PT,1715650347
548,tieling,42.2931,123.8414,296.73,38,100,4.81,CN,1715650348
549,nadi,-17.8,177.4167,301.15,69,40,4.63,FJ,1715650348
550,santa cruz,-17.8,-63.1667,288.85,82,100,7.2,BO,1715650261
551,olinda,-8.0089,-34.8553,301.0,78,75,1.54,BR,1715650207
552,divinopolis,-20.1389,-44.8839,290.71,57,2,1.46,BR,1715650223
553,ballina,-28.8667,153.5667,295.81,69,11,5.7,AU,1715650353
554,kerikeri,-35.2268,173.9474,289.93,53,99,3.24,NZ,1715650353
555,extrema,-22.8547,-46.3183,289.67,53,0,2.11,BR,1715650354
556,moapa valley,36.5805,-114.4703,306.99,9,29,3.71,US,1715650354
557,lospalos,-8.5186,127.0025,299.64,76,35,5.07,TL,1715650355
558,zhezqazghan,47.7833,67.7667,291.47,52,0,2.0,KZ,1715650355
559,luena,-11.7833,19.9167,290.25,72,0,2.57,AO,1715650355
560,beipiao,41.7919,120.7792,294.37,37,100,8.93,CN,1715650356
561,svitlovods'k,49.0489,33.2411,279.65,88,100,6.86,UA,1715650356
562,mgandu,-5.95,34.1333,287.53,88,98,2.65,TZ,1715650357
563,reggane,26.7158,0.1714,304.68,13,2,4.54,DZ,1715650358
564,westport,41.1415,-73.3579,287.99,84,100,2.57,US,1715650154
565,shenjiamen,29.9576,122.298,291.72,55,100,1.41,CN,1715650359
566,fallon,39.4735,-118.7774,301.08,19,75,4.12,US,1715650359
567,loiza,18.4313,-65.8802,301.74,81,40,3.09,PR,1715650360
568,dauphin,51.1494,-100.0502,282.23,71,100,2.06,CA,1715650360
569,afif,23.9065,42.9172,299.18,21,55,3.09,SA,1715650360
570,williams,52.1415,-122.1445,288.74,51,20,5.14,CA,1715650361
571,kodinsk,58.6881,99.1844,287.84,34,83,4.91,RU,1715650361
572,ambon,-3.6954,128.1814,303.64,95,40,1.54,ID,1715650361
573,shache,38.4167,77.2406,296.89,11,0,3.1,CN,1715650362
574,wenzhou,27.9994,120.6668,295.44,46,98,1.03,CN,1715650362
575,mejit,10.2753,170.8646,301.0,80,94,8.46,MH,1715650362
576,plettenberg bay,-34.0527,23.3716,289.33,66,0,1.98,ZA,1715650363
577,kayangel,8.0823,134.7173,302.2,75,47,5.21,PW,1715650363
578,inarajan village,13.2736,144.7484,305.04,83,69,6.45,GU,1715650363
579,karmala,18.4167,75.2,303.76,41,0,4.06,IN,1715650364
580,mangrol,21.1167,70.1167,301.95,71,0,3.71,IN,1715650364
581,alesund,62.4723,6.1549,287.09,76,100,3.6,NO,1715650364
582,pioner,55.3166,85.9508,287.84,47,0,2.0,RU,1715650365
